[
  {
    "id": "dmc-modell-car-club-bad-kissingen-e-v",
    "name": "Modell-Car-Club Bad Kissingen e.V.",
    "city": null,
    "lat": 50.20437672229121,
    "lng": 10.097876991086581,
    "hostIds": [
      "dmc-modell-car-club-bad-kissingen-e-v"
    ],
    "source": "dmc-seed"
  },
  {
    "id": "dmc-mcc-rudolstadt-e-v",
    "name": "MCC Rudolstadt e.V.",
    "city": null,
    "lat": 50.72384715912249,
    "lng": 11.351920419287275,
    "hostIds": [
      "dmc-mcc-rudolstadt-e-v"
    ],
    "source": "dmc-seed"
  },
  {
    "id": "dmc-spessart-racer",
    "name": "Spessart Racer",
    "city": null,
    "lat": 49.967133148160016,
    "lng": 9.303292985142585,
    "hostIds": [
      "dmc-spessart-racer"
    ],
    "source": "dmc-seed"
  },
  {
    "id": "dmc-big-hamburg-e-v",
    "name": "BIG Hamburg e.V.",
    "city": null,
    "lat": 53.64060473290764,
    "lng": 9.832929581941356,
    "hostIds": [
      "dmc-big-hamburg-e-v"
    ],
    "source": "dmc-seed"
  },
  {
    "id": "dmc-rc-club-grossheubach-e-v",
    "name": "RC-Club Grossheubach e.V.",
    "city": null,
    "lat": 49.71631983331656,
    "lng": 9.22897600697451,
    "hostIds": [
      "dmc-rc-club-grossheubach-e-v"
    ],
    "source": "dmc-seed"
  },
  {
    "id": "dmc-rmc-wolfsburg-e-v",
    "name": "RMC Wolfsburg e.V.",
    "city": null,
    "lat": 52.42966034303305,
    "lng": 10.865419082462832,
    "hostIds": [
      "dmc-rmc-wolfsburg-e-v"
    ],
    "source": "dmc-seed"
  },
  {
    "id": "dmc-modellsport-munsterland-e-v",
    "name": "Modellsport Münsterland e.V.",
    "city": "Ibbenbüren",
    "lat": 52.34156335945138,
    "lng": 7.577074708374697,
    "hostIds": [
      "dmc-modellsport-munsterland-e-v"
    ],
    "source": "dmc-seed"
  },
  {
    "id": "dmc-mc-schwedt-e-v",
    "name": "MC Schwedt e.V.",
    "city": null,
    "lat": 53.12277371820801,
    "lng": 14.28616563116813,
    "hostIds": [
      "dmc-mc-schwedt-e-v"
    ],
    "source": "dmc-seed"
  },
  {
    "id": "dmc-rc-freunde-kinzigtal-e-v",
    "name": "RC-Freunde Kinzigtal e.V.",
    "city": null,
    "lat": 48.25856894788509,
    "lng": 8.20950494948204,
    "hostIds": [
      "dmc-rc-freunde-kinzigtal-e-v"
    ],
    "source": "dmc-seed"
  },
  {
    "id": "dmc-bc-mitterkreith",
    "name": "BC Mitterkreith",
    "city": null,
    "lat": 49.21155192592243,
    "lng": 12.493146117142087,
    "hostIds": [
      "dmc-bc-mitterkreith"
    ],
    "source": "dmc-seed"
  },
  {
    "id": "dmc-mbc-oberlausitz-e-v",
    "name": "MBC Oberlausitz e.V.",
    "city": null,
    "lat": 51.08318541210428,
    "lng": 14.57770822945999,
    "hostIds": [
      "dmc-mbc-oberlausitz-e-v"
    ],
    "source": "dmc-seed"
  },
  {
    "id": "dmc-boc-kiel-e-v",
    "name": "BOC Kiel e.V.",
    "city": null,
    "lat": 54.405611868632796,
    "lng": 10.277043224357401,
    "hostIds": [
      "dmc-boc-kiel-e-v"
    ],
    "source": "dmc-seed"
  },
  {
    "id": "dmc-msc-sand-e-v",
    "name": "MSC Sand e.V.",
    "city": null,
    "lat": 49.97561500237808,
    "lng": 10.581751303542033,
    "hostIds": [
      "dmc-msc-sand-e-v"
    ],
    "source": "dmc-seed"
  },
  {
    "id": "dmc-rc-halle-e-v",
    "name": "RC Halle e.V.",
    "city": null,
    "lat": 51.46739270411921,
    "lng": 11.986882520742833,
    "hostIds": [
      "dmc-rc-halle-e-v"
    ],
    "source": "dmc-seed"
  },
  {
    "id": "dmc-modell-car-club-rhein-ahr-e-v",
    "name": "Modell Car Club Rhein Ahr e.V.",
    "city": "Wipperfürth",
    "lat": 50.63815574143907,
    "lng": 7.760546012964474,
    "hostIds": [
      "dmc-modell-car-club-rhein-ahr-e-v"
    ],
    "source": "dmc-seed"
  },
  {
    "id": "dmc-offroad-club-ostsee-e-v",
    "name": "Offroad Club Ostsee e.V.",
    "city": null,
    "lat": 54.22601827812129,
    "lng": 10.77563474253423,
    "hostIds": [
      "dmc-offroad-club-ostsee-e-v"
    ],
    "source": "dmc-seed"
  },
  {
    "id": "dmc-ort-fulda",
    "name": "ORT Fulda",
    "city": null,
    "lat": 50.48845151298898,
    "lng": 9.410104072742504,
    "hostIds": [
      "dmc-ort-fulda"
    ],
    "source": "dmc-seed"
  },
  {
    "id": "dmc-rc-offroad-ottendorf-okrilla-e-v",
    "name": "RC-Offroad Ottendorf-Okrilla e.V.",
    "city": null,
    "lat": 51.208755602022045,
    "lng": 13.83564932733246,
    "hostIds": [
      "dmc-rc-offroad-ottendorf-okrilla-e-v"
    ],
    "source": "dmc-seed"
  }
]
