[
  {
    "id": "tsv-mariendorf",
    "name": "TSV Mariendorf RC Racing",
    "city": "Berlin",
    "lat": 52.410703,
    "lng": 13.321052
  },
  {
    "id": "bernau",
    "name": "RC Speedracer Bernau",
    "city": "Bernau",
    "lat": 52.6975418,
    "lng": 13.6211917
  },
  {
    "id": "marzahn",
    "name": "Marzahner Racing Club e.V.",
    "city": "Berlin-Marzahn",
    "lat": 52.53875196434322,
    "lng": 13.561567229887286
  },
  {
    "id": "blankenfelde",
    "name": "Burning Wheels Blankenfelde",
    "city": "Blankenfelde",
    "lat": 52.32099365980667,
    "lng": 13.40860882307241
  },
  {
    "id": "myrcm-39671",
    "name": "MRC Mannheim e.V.",
    "city": "Mannheim",
    "lat": 49.48747754217388,
    "lng": 8.504221524425674
  },
  {
    "id": "myrcm-33",
    "name": "AMC Hildesheim e.V.",
    "city": "Hildesheim",
    "lat": 52.15720104253146,
    "lng": 9.930734865467414
  },
  {
    "id": "myrcm-19597",
    "name": "AMC Lahntal e.V.",
    "city": "Solms",
    "lat": 50.57298785101659,
    "lng": 8.539485269537407
  },
  {
    "id": "myrcm-6025",
    "name": "AMC Langenfeld e.V.",
    "city": "Solingen",
    "lat": 51.11124440703488,
    "lng": 6.9254506669797475
  },
  {
    "id": "myrcm-44208",
    "name": "AMC Magdeburg e.V.",
    "city": "Magdeburg",
    "lat": 52.089630528745495,
    "lng": 11.557263291516346
  },
  {
    "id": "myrcm-7103",
    "name": "AMC Saarbrücken e.V.",
    "city": "Saarbrücken",
    "lat": 49.25494432605648,
    "lng": 7.001039730657222
  },
  {
    "id": "myrcm-58267",
    "name": "AMC Senftenberg e.V.",
    "city": "Senftenberg",
    "lat": 51.513511017262914,
    "lng": 13.997624485710512
  },
  {
    "id": "myrcm-4006",
    "name": "AMC Sonthofen e.V.",
    "city": "Immenstadt",
    "lat": 47.56238610077959,
    "lng": 10.21998396888581
  },
  {
    "id": "myrcm-7771",
    "name": "amc-Hamm e.V.",
    "city": "Bönen",
    "lat": 51.682030657927996,
    "lng": 7.9324199858423805
  },
  {
    "id": "myrcm-82",
    "name": "AMC-Mühlau e.V.",
    "city": "Mühlau",
    "lat": 50.90067043142882,
    "lng": 12.768212160800493
  },
  {
    "id": "myrcm-36",
    "name": "AMSC Augsburg e. V.",
    "city": "Dasing",
    "lat": 48.403917527342564,
    "lng": 11.077982831882666
  },
  {
    "id": "myrcm-29065",
    "name": "AMSC-Herne e.V.",
    "city": "Bochum",
    "lat": 51.51452313992984,
    "lng": 7.169385692502446
  },
  {
    "id": "myrcm-26821",
    "name": "ASC Celle e.V.",
    "city": "Celle",
    "lat": 52.597671730560705,
    "lng": 10.051027925236115
  },
  {
    "id": "myrcm-26596",
    "name": "ASC Potsdam e.V.",
    "city": "Potsdam",
    "lat": 52.309760094922,
    "lng": 13.447708353987874
  },
  {
    "id": "myrcm-861",
    "name": "Automodellclub Meißen e.V.",
    "city": "Nossen",
    "lat": 51.183209912703695,
    "lng": 13.494275375841397
  },
  {
  "id": "myrcm-64649",
  "name": "Breitenfelder Sportverein von 1924 e.V.",
  "city": "Breitenfelde",
  "lat": 53.606169364621394,
  "lng": 10.628400444902876
},
{
  "id": "myrcm-50568",
  "name": "DJK-SSC Lackenhäuser e.V.",
  "city": "Neureichenau",
  "lat": 48.735561100310875,
  "lng": 13.798475640900763
},
{
  "id": "myrcm-35606",
  "name": "EDC Kinzigtal e.V.",
  "city": "Gengenbach",
  "lat": 48.424259010683336,
  "lng": 8.017786070319858
},
{
  "id": "myrcm-43367",
  "name": "EMC-Marktoberdorf",
  "city": "Marktoberdorf",
  "lat": 47.77353559344614,
  "lng": 10.596636348538459
},
{
  "id": "myrcm-10117",
  "name": "Equipe RC Nohn",
  "city": "Nohn",
  "lat": 48.37078150268052,
  "lng": 10.719769403703232
},
{
  "id": "myrcm-37613",
  "name": "ESV Blau-Gold Bischofsheim 1958 e.V.",
  "city": "Bischofsheim",
  "lat": 49.97763075091446,
  "lng": 8.387647129236486
},
{
  "id": "myrcm-56473",
  "name": "Greenhouse RaCer e.V.",
  "city": "Wendelstein",
  "lat": 49.34814240723616,
  "lng": 11.142573203838916
},
{
  "id": "myrcm-52798",
  "name": "LA Speedway Racing Club e.V.",
  "city": "Bruckberg",
  "lat": 48.5135310265825,
  "lng": 12.044646410956766
},
{
  "id": "myrcm-17507",
  "name": "Lost-Place-Racers e.V.",
  "city": "Prüm",
  "lat": 50.62670012162062,
  "lng": 6.695804823655136
},
{
  "id": "myrcm-19204",
  "name": "LTS Bremerhaven Racing Team",
  "city": "Geestland",
  "lat": 53.588865659093905,
  "lng": 8.58660868179531
},
{
  "id": "myrcm-4602",
  "name": "MAC Adenau",
  "city": "Kottenborn",
  "lat": 50.380520238217656,
  "lng": 6.9339287153803975
},
  {
  "id": "myrcm-678",
  "name": "MAC Burgdorf e.V.",
  "city": "Burgdorf",
  "lat": 52.43191612480417,
  "lng": 10.017538646084235
},
{
  "id": "myrcm-20622",
  "name": "MAC Hamburg e.V.",
  "city": "Hamburg",
  "lat": 53.52486125519811,
  "lng": 10.134162196790893
},
{
  "id": "myrcm-891",
  "name": "MAC Mettenheim e.V.",
  "city": "Vaterstetten",
  "lat": 48.25458988422763,
  "lng": 12.455744115925047
},
{
  "id": "myrcm-9976",
  "name": "MAC Nürnberg e.V",
  "city": "Nürnberg",
  "lat": 49.38767201459021,
  "lng": 11.168661334912732
},
{
  "id": "myrcm-30735",
  "name": "MAC OR Hütschenhausen e.V.",
  "city": "Hütschenhausen",
  "lat": 49.41803566643476,
  "lng": 7.457597641355012
},
{
  "id": "myrcm-233",
  "name": "MAC Saar e.V.",
  "city": "Bexbach",
  "lat": 49.23737851350886,
  "lng": 7.197984131866451
},
{
  "id": "myrcm-53667",
  "name": "MAC Uetersen e.V.",
  "city": "Uetersen",
  "lat": 53.67639410403049,
  "lng": 9.70171695639382
},
{
  "id": "myrcm-49037",
  "name": "MAC-Meckenheim e.V.",
  "city": "Bad Münstereifel",
  "lat": 50.623679184080956,
  "lng": 7.043371956119134
},
{
  "id": "myrcm-42064",
  "name": "MAC-Solms e.V.",
  "city": "Ehringshausen",
  "lat": 50.53393592577889,
  "lng": 8.601463866322767
},
{
  "id": "myrcm-24873",
  "name": "MBC Goldstein e.V.",
  "city": "Frankfurt",
  "lat": 50.07714491151757,
  "lng": 8.613882094074963
},
{
  "id": "myrcm-27211",
  "name": "MBSC Wächtersbach",
  "city": "Wächtersbach",
  "lat": 50.246100236848775,
  "lng": 9.291699351520423
}
]
